{
  "houses": [
    {
      "id": 1,
      "name": "Hösmärinkuja 1 J",
      "address": "Hösmärinkuja 1 J, 02760 Espoo",
      "neighborhood": "Suna",
      "topics": [
        {
          "title": "Internet",
          "text": [
            "Asuntoon saa Internetin kahdella eri tavalla:",
            "- Elisan ADSL: teoreettinen maksiminopeus on 24Mbps, mutta käytännössä läpi tulee n. 10-15Mbps.",
            "- Soneran 4G-verkko. Mokkulan kautta saa n. 50Mbps yhteyden.",
            "Näiden lisäksi olemme kokeilleet myös Elisan 4G:tä keväällä 2014, mutta se ei taloomme kuulunut. Tilanne voi olla muuttunut."
          ]
        }
      ],
      "map": {
        "lat": 60.19788,
        "lon": 24.67328,
        "zoom": 18,
        "services": {
          "bus": [
            {
              "name": "Saarnimäenkuja",
              "lat": 60.19791,
              "lon": 24.66952,
              "url": "http://aikataulut.reittiopas.fi/pysakit/fi/2613003.html",
              "lines": {
                "19": "Tuomarilan asema",
                "156": "Kamppi"
              }
            },
            {
              "name": "Saarnimäenkuja",
              "lat": 60.19772,
              "lon": 24.66925,
              "url": "http://aikataulut.reittiopas.fi/pysakit/fi/2613004.html",
              "lines": {
                "19": "Tapiola",
                "156": "Tuomarila"
              }
            },
            {
              "name": "Kalliorinne",
              "lat": 60.19520,
              "lon": 24.66344,
              "url": "http://aikataulut.reittiopas.fi/pysakit/fi/2615239.html",
              "lines": {
                "31": "Friisilänaukio",
                "42": "Soukka",
                "46": "Hyljelahti",
                "154": "Kamppi",
                "154N": "Kamppi",
                "154T": "Kamppi",
                "156": "Kamppi"
              }
            },
            {
              "name": "Kalliorinne",
              "lat": 60.19541,
              "lon": 24.66349,
              "url": "http://aikataulut.reittiopas.fi/pysakit/fi/2615236.html",
              "lines": {
                "31": "Jorvi",
                "42": "Jorvi",
                "46": "Espoon keskus",
                "154": "Tuomarila",
                "154N": "Tuomarila",
                "154T": "Tuomarila",
                "156": "Tuomarila"
              }
            },
            {
              "name": "Kirstintie 7",
              "lat": 60.20117,
              "lon": 24.66709,
              "url": "http://aikataulut.reittiopas.fi/pysakit/fi/2613001.html",
              "lines": {
                "18": "Tapiola",
                "19": "Tuomarilan asema",
                "154": "Tuomarila",
                "154N": "Tuomarila",
                "154T": "Tuomarila",
                "213": "Elielinaukio",
                "213N": "Elielinaukio",
                "270": "Kuurinniitty",
                "270N": "Kuurinniitty"
              }
            },
            {
              "name": "Kirstintie 4",
              "lat": 60.20104,
              "lon": 24.66628,
              "url": "http://aikataulut.reittiopas.fi/pysakit/fi/2613000.html",
              "lines": {
                "18": "Kauklahti",
                "19": "Tapiola",
                "154": "Kamppi",
                "154N": "Kamppi",
                "154T": "Kamppi",
                "213": "Kauklahti",
                "213N": "Kauklahti",
                "270": "Elielinaukio",
                "270N": "Elielinaukio"
              }
            }
          ],
          "train": [
            {
              "name": "Tuomarila",
              "lat": 60.20607,
              "lon": 24.68075,
              "url": "http://aikataulut.reittiopas.fi/pysakit/fi/2612551.html",
              "lines": {
                "E": "Helsinki",
                "L": "Helsinki",
                "S": "Helsinki",
                "U": "Helsinki"
              }
            },
            {
              "name": "Espoo",
              "lat": 60.20514,
              "lon": 24.65697,
              "url": "http://aikataulut.reittiopas.fi/pysakit/fi/2611552.html",
              "lines": {
                "E": "Helsinki",
                "L": "Helsinki",
                "S": "Helsinki",
                "U": "Helsinki"
              }
            }
          ],
          "shops": [
            {
              "name": "Alepa",
              "lat": 60.20049,
              "lon": 24.66985,
              "description": {
                "Ma-La": "7-23",
                "Su": "10-23"
              }
            },
            {
              "name": "K-market",
              "lat": 60.20038,
              "lon": 24.67012,
              "description": {
                "Ma-La": "7-22",
                "Su": "9-22"
              }
            },
            {
              "name": "S-market",
              "lat": 60.20372,
              "lon": 24.66060,
              "description": {
                "Ma-Pe": "7-21",
                "La": "7-18",
                "Su": "12-18"
              }
            },
            {
              "name": "K-supermarket Kulinaari",
              "lat": 60.20408,
              "lon": 24.65649,
              "description": {
                "Ma-Pe": "7-21",
                "La": "7-18",
                "Su": "12-18"
              }
            }
          ],
          "daycare": [
            {
              "name": "Hösmärin päiväkoti",
              "lat": 60.19827,
              "lon": 24.67177,
              "url": "http://www.espoo.fi/fi-FI/Paivahoito_ja_koulutus/Paivahoito/Paivakodit/Kunnalliset_paivakodit/Espoon_keskus/HosmariTuomarilan_alue/Hosmarin_paivakoti"
            },
            {
              "name": "Hösmärinpuiston päiväkoti",
              "lat": 60.19944,
              "lon": 24.67579,
              "url": "http://www.espoo.fi/fi-FI/Paivahoito_ja_koulutus/Paivahoito/Paivakodit/Kunnalliset_paivakodit/Espoon_keskus/HosmariTuomarilan_alue/Hosmarinpuiston_paivakoti"
            },
            {
              "name": "Kirstin päiväkoti",
              "lat": 60.20153,
              "lon": 24.66990,
              "url": "http://www.espoo.fi/fi-FI/Paivahoito_ja_koulutus/Paivahoito/Paivakodit/Kunnalliset_paivakodit/Espoon_keskus/Suvelan_alue/Kirstin_paivakoti"
            },
            {
              "name": "Saarniraivion päiväkoti",
              "lat": 60.19763,
              "lon": 24.66459,
              "url": "http://www.espoo.fi/fi-FI/Paivahoito_ja_koulutus/Paivahoito/Paivakodit/Kunnalliset_paivakodit/Espoon_keskus/Suvelan_alue/Saarniraivion_paivakoti"
            },
            {
              "name": "Sokinvuoren päiväkoti",
              "lat": 60.19966,
              "lon": 24.66923,
              "url": "http://www.espoo.fi/fi-FI/Paivahoito_ja_koulutus/Paivahoito/Paivakodit/Kunnalliset_paivakodit/Espoon_keskus/Suvelan_alue/Sokinvuoren_paivakoti"
            },
            {
              "name": "Honey Monsters",
              "lat": 60.20119,
              "lon": 24.68191,
              "url": "http://www.honeymonsters.fi/Yhteystiedot/"
            },
            {
              "name": "Päiväkoti Pellava",
              "lat": 60.20140,
              "lon": 24.67149,
              "url": "http://www.kolumbus.fi/paivakoti.pellava/index.htm"
            }
          ],
          "primary-schools": [
            {
              "name": "Hösmärinpuiston koulu",
              "lat": 60.19924,
              "lon": 24.67574,
              "description": {
                "Luokat": "0-2"
              },
              "url": "http://www.espoo.fi/fi-FI/Paivahoito_ja_koulutus/Perusopetus/Peruskoulut/Alakoulut/Hosmarinpuiston_koulu"
            },
            {
              "name": "Jalavapuiston koulu",
              "lat": 60.19710,
              "lon": 24.66562,
              "url": "http://www.espoo.fi/fi-FI/Paivahoito_ja_koulutus/Perusopetus/Peruskoulut/Alakoulut/Jalavapuiston_koulu"
            },
            {
              "name": "Kirstin koulu",
              "lat": 60.20153,
              "lon": 24.66985,
              "url": "http://www.espoo.fi/fi-FI/Paivahoito_ja_koulutus/Perusopetus/Peruskoulut/Alakoulut/Kirstin_koulu"
            },
            {
              "name": "Sunan koulu",
              "lat": 60.19666,
              "lon": 24.67931,
              "url": "http://www.espoo.fi/fi-FI/Paivahoito_ja_koulutus/Perusopetus/Peruskoulut/Alakoulut/Sunan_koulu"
            },
            {
              "name": "Tuomarilan koulu",
              "lat": 60.20171,
              "lon": 24.68371,
              "url": "http://www.espoo.fi/tuomarilankoulu"
            }
          ],
          "middle-schools": [
            {
              "name": "Saarnilaakson koulu",
              "lat": 60.19565,
              "lon": 24.66776,
              "url": "http://www.espoo.fi/fi-FI/Paivahoito_ja_koulutus/Perusopetus/Peruskoulut/Ylakoulut/Saarnilaakson_koulu"
            }
          ],
          "health": [
            {
              "name": "Suvelan lastentalo, Äitiys- ja lastenneuvola",
              "lat": 60.20140,
              "lon": 24.67149
            },
            {
              "name": "Espoon keskuksen perheneuvola",
              "lat": 60.20362,
              "lon": 24.65465
            },
            {
              "name": "Kiltakallion lastentalo, Äitiys- ja lastenneuvola",
              "lat": 60.19916,
              "lon": 24.65975
            },
            {
              "name": "Samarian terveysasema",
              "lat": 60.20199,
              "lon": 24.65422,
              "url": "http://www.espoo.fi/fi-FI/Sosiaali_ja_terveyspalvelut/Terveyspalvelut/Terveysasemat/Samarian_terveysasema__Espoon_keskus"
            }
          ]
        }
      }
    }
  ]
}